{
  "type": "FeatureCollection",
  "properties": {
    "name": "Kazakhstan"
  },
  "features": [
    {
      "type": "Feature",
      "properties": {
        "name": "Shymkent",
        "type": "City",
        "description": "Stopped by quickly on the way to and from Turkestan",
        "trips": ["central-asia"],
        "country": "kazakhstan",
        "visited": true
      },
      "geometry": {
        "type": "Point",
        "coordinates": [
          69.63134765625,
          42.33012354634199
        ]
      }
    },
    {
      "type": "Feature",
      "properties": {
        "name": "Kolsai Lake Trek",
        "type": "Trek",
        "country": "kazakhstan",
        "description": "Only had time to see the first and the second lake",
        "trips": ["central-asia"],
        "visited": true
      },
      "geometry": {
        "type": "Point",
        "coordinates": [
          78.32376480102539,
          42.982297711536056
        ]
      }
    },
    {
      "type": "Feature",
      "properties": {
        "name": "Almaty",
        "type": "City",
        "country": "kazakhstan",
        "description": "Met Casimir for the first time. Also met Mikhail",
        "trips": ["central-asia"],
        "visited": true
      },
      "geometry": {
        "type": "Point",
        "coordinates": [
          76.937255859375,
          43.249203966977845
        ]
      }
    },
    {
      "type": "Feature",
      "properties": {
        "name": "Saty",
        "type": "City",
        "country": "kazakhstan",
        "description": "Entrance to the Kolsai Lake trek",
        "trips": ["central-asia"],
        "visited": true
      },
      "geometry": {
        "type": "Point",
        "coordinates": [
          78.409423828125,
          43.07189740429314
        ]
      }
    },
    {
      "type": "Feature",
      "properties": {
        "name": "Astana",
        "type": "City",
        "country": "kazakhstan",
        "description": "Didn't even stay overnight, only spent a long day before continuing.",
        "trips": ["central-asia"],
        "visited": true
      },
      "geometry": {
        "type": "Point",
        "coordinates": [
          71.43310546875,
          51.15867686442365
        ]
      }
    },
    {
      "type": "Feature",
      "properties": {
        "name": "Burabay",
        "type": "City",
        "country": "kazakhstan",
        "description": "Hiked, got lost, and met Aida.",
        "trips": ["central-asia"],
        "visited": true
      },
      "geometry": {
        "type": "Point",
        "coordinates": [
          70.30769348144531,
          53.08247717874112
        ]
      }
    },
    {
      "type": "Feature",
      "properties": {
        "name": "Turkestan",
        "type": "City",
        "description": "My first proper sight in Central Asia. Not worth it.",
        "trips": ["central-asia"],
        "country": "kazakhstan",
        "visited": true
      },
      "geometry": {
        "type": "Point",
        "coordinates": [
          68.79570007324219,
          41.177975654664785
        ]
      }
    }
  ]
}
