{
  "type": "FeatureCollection",
  "properties": {
    "name": "South Korea"
  },
  "features": [
    {
      "type": "Feature",
      "properties": {
        "name": "Busan",
        "country": "south-korea",
        "description": "Stayed in a really nice hostel with a big fluffy dog. The owner invited me to dinner with her brother downstairs",
        "trips": ["middle-east"],
        "type": "City",
        "visited": true
      },
      "geometry": {
        "type": "Point",
        "coordinates": [
          129.07012939453125,
          35.149108698601644
        ]
      }
    },
    {
      "type": "Feature",
      "properties": {
        "name": "Seoul",
        "country": "south-korea",
        "description": "Met up with David whom I met in India",
        "trips": ["middle-east"],
        "type": "City",
        "visited": true
      },
      "geometry": {
        "type": "Point",
        "coordinates": [
          126.97998046875001,
          37.54784381205082
        ]
      }
    },
    {
      "type": "Feature",
      "properties": {
        "name": "Gyenongju",
        "country": "south-korea",
        "description": "Went to the oldest hostel in South Korea. The recently deceased owner seemed like a fascinating person",
        "trips": ["middle-east"],
        "type": "City",
        "visited": true
      },
      "geometry": {
        "type": "Point",
        "coordinates": [
          129.232177734375,
          35.833401703805094
        ]
      }
    },
    {
      "type": "Feature",
      "properties": {
        "name": "Sokcho",
        "country": "south-korea",
        "description": "Hitchhiked here to see the national park. Slept in a Jjimjilbang.",
        "trips": ["middle-east"],
        "type": "City",
        "visited": true
      },
      "geometry": {
        "type": "Point",
        "coordinates": [
          128.58810424804688,
          38.20203656603225
        ]
      }
    },
    {
      "type": "Feature",
      "properties": {
        "name": "Seoraksan",
        "country": "south-korea",
        "description": "Unfortunately I hurt my foot in Japan so I couldn't hike properly",
        "type": "Trek",
        "trips": ["middle-east"],
        "visited": true
      },
      "geometry": {
        "type": "Point",
        "coordinates": [
          128.48888397216797,
          38.170058838810554
        ]
      }
    }
  ]
}
