{
  "type": "FeatureCollection",
  "properties": {
    "name": "Yemen"
  },
  "features": [
    {
      "type": "Feature",
      "properties": {
        "name": "Ta'izz",
        "type": "City",
        "country": "yemen",
        "description": "Went to see the fort",
        "trips": ["middle-east"],
        "visited": true
      },
      "geometry": {
        "type": "Point",
        "coordinates": [
          44.0167236328125,
          13.571241563074146
        ]
      }
    },
    {
      "type": "Feature",
      "properties": {
        "name": "Ibb",
        "type": "City",
        "trips": ["middle-east"],
        "country": "yemen",
        "visited": true
      },
      "geometry": {
        "type": "Point",
        "coordinates": [
          44.18701171875,
          13.912740120941834
        ]
      }
    },
    {
      "type": "Feature",
      "properties": {
        "name": "Sana'a",
        "type": "City",
        "description": "Arrived together with Harriet to start the tour around Yemen",
        "trips": ["middle-east"],
        "country": "yemen",
        "visited": true
      },
      "geometry": {
        "type": "Point",
        "coordinates": [
          44.208984375,
          15.321273934950508
        ]
      }
    },
    {
      "type": "Feature",
      "properties": {
        "name": "Al Hajjara",
        "type": "City",
        "country": "yemen",
        "trips": ["middle-east"],
        "visited": true
      },
      "geometry": {
        "type": "Point",
        "coordinates": [
          43.71665954589844,
          15.068311121385213
        ]
      }
    },
    {
      "type": "Feature",
      "properties": {
        "name": "Manakha",
        "type": "City",
        "country": "yemen",
        "trips": ["middle-east"],
        "visited": true
      },
      "geometry": {
        "type": "Point",
        "coordinates": [
          43.74077796936035,
          15.074278364183497
        ]
      }
    },
    {
      "type": "Feature",
      "properties": {
        "name": "Haraz Mountains",
        "type": "Trek",
        "country": "yemen",
        "trips": ["middle-east"],
        "visited": true
      },
      "geometry": {
        "type": "Point",
        "coordinates": [
          43.72541427612305,
          15.066487763819806
        ]
      }
    }
  ]
}
