{
  "type": "FeatureCollection",
  "features": [
    {
      "type": "Feature",
      "properties": {
        "name": "Buenos Aires",
        "type": "City",
        "country": "argentina",
        "description": "Spent a full transit day here on the way from Finland to Ushuaia",
        "visited": true
      },
      "geometry": {
        "type": "Point",
        "coordinates": [
          -58.447265625,
          -34.63320791137958
        ]
      }
    },
    {
      "type": "Feature",
      "properties": {
        "name": "Ushuaia",
        "type": "City",
        "description": "Arrived hoping to catch a cruise to Antarctica, sadly the prices had gone up 2-3 times. I slept underneath a tree outside town and then started hitchhiking north.",
        "country": "argentina",
        "visited": true
      },
      "geometry": {
        "type": "Point",
        "coordinates": [
          -68.31298828125,
          -54.81018290195896
        ]
      }
    },
    {
      "type": "Feature",
      "properties": {
        "name": "Rio Grande",
        "type": "City",
        "description": "Met Emilio as I hitchhiked out of Ushuaia and stayed with him at one of his friends for the night.",
        "country": "argentina",
        "visited": true
      },
      "geometry": {
        "type": "Point",
        "coordinates": [
          -67.7197265625,
          -53.78442647129428
        ]
      }
    },
    {
      "type": "Feature",
      "properties": {
        "name": "El Calafate",
        "type": "City",
        "description": "Got a ride with my Chilean parents from Puerto Natales. The next day I continued with them for the entire Carretera Austral",
        "country": "argentina",
        "visited": true
      },
      "geometry": {
        "type": "Point",
        "coordinates": [
          -72.27630615234375,
          -50.33669584519003
        ]
      }
    },
    {
      "type": "Feature",
      "properties": {
        "name": "Perito Moreno",
        "type": "National Park",
        "description": "Met up with my chilean parents again as I was on my way back to Calafate",
        "country": "argentina",
        "visited": true
      },
      "geometry": {
        "type": "Point",
        "coordinates": [
          -73.0316162109375,
          -50.47149085139955
        ]
      }
    },
    {
      "type": "Feature",
      "properties": {
        "name": "Gobernador Gregores",
        "type": "City",
        "description": "While hitchhiking, we all shared a tent and cooked a great dinner.",
        "country": "argentina",
        "visited": true
      },
      "geometry": {
        "type": "Point",
        "coordinates": [
          -70.29052734375,
          -48.76524156853449
        ]
      }
    },
    {
      "type": "Feature",
      "properties": {
        "name": "Cueva de las Manos",
        "type": "Sight",
        "country": "argentina",
        "visited": true
      },
      "geometry": {
        "type": "Point",
        "coordinates": [
          -70.6585693359375,
          -47.150501425705635
        ]
      }
    },
    {
      "type": "Feature",
      "properties": {
        "name": "Los Antiguos",
        "type": "Border Crossing",
        "description": "Argentina - Chile",
        "country": "argentina",
        "visited": true
      },
      "geometry": {
        "type": "Point",
        "coordinates": [
          -71.63360595703125,
          -46.55130547880641
        ]
      }
    },
    {
      "type": "Feature",
      "properties": {
        "name": "Uspallata",
        "type": "City",
        "country": "argentina",
        "visited": true
      },
      "geometry": {
        "type": "Point",
        "coordinates": [
          -69.3511962890625,
          -32.58963484306729
        ]
      }
    },
    {
      "type": "Feature",
      "properties": {
        "name": "Puente del Inca",
        "type": "Sight",
        "country": "argentina",
        "visited": true
      },
      "geometry": {
        "type": "Point",
        "coordinates": [
          -69.9169921875,
          -32.819594869239744
        ]
      }
    },
    {
      "type": "Feature",
      "properties": {
        "name": "Las Cuevas",
        "type": "Border Crossing",
        "description": "Chile - Argentina: Got off the bus as it would have taken hours to get through customs. Instead I started hitchhiking",
        "country": "argentina",
        "visited": true
      },
      "geometry": {
        "type": "Point",
        "coordinates": [
          -70.05020141601562,
          -32.8109387870005
        ]
      }
    },
    {
      "type": "Feature",
      "properties": {
        "name": "Mendoza",
        "type": "City",
        "country": "argentina",
        "visited": true
      },
      "geometry": {
        "type": "Point",
        "coordinates": [
          -68.829345703125,
          -32.88881315761995
        ]
      }
    },
    {
      "type": "Feature",
      "properties": {
        "name": "Maipu",
        "type": "City",
        "description": "Bicycle wine tour",
        "country": "argentina",
        "visited": true
      },
      "geometry": {
        "type": "Point",
        "coordinates": [
          -68.7744140625,
          -32.98562797456918
        ]
      }
    },
    {
      "type": "Feature",
      "properties": {
        "name": "San Juan",
        "type": "City",
        "description": "After wasting a day trying to hitchhike north I gave up and decided to go back to San Juan to take a bus to Salta",
        "country": "argentina",
        "visited": true
      },
      "geometry": {
        "type": "Point",
        "coordinates": [
          -68.521728515625,
          -31.545771394936274
        ]
      }
    },
    {
      "type": "Feature",
      "properties": {
        "name": "Salta",
        "type": "City",
        "country": "argentina",
        "visited": true
      },
      "geometry": {
        "type": "Point",
        "coordinates": [
          -65.41259765625,
          -24.77675993321915
        ]
      }
    },
    {
      "type": "Feature",
      "properties": {
        "name": "Cafayate",
        "type": "City",
        "description": "Spent the night sleeping under the stars at El Anfiteatro.",
        "country": "argentina",
        "visited": true
      },
      "geometry": {
        "type": "Point",
        "coordinates": [
          -65.96466064453125,
          -26.074053532504152
        ]
      }
    },
    {
      "type": "Feature",
      "properties": {
        "name": "Cachi",
        "type": "City",
        "description": "Had a quick look at the town before walking north to find a place to sleep",
        "country": "argentina",
        "visited": true
      },
      "geometry": {
        "type": "Point",
        "coordinates": [
          -66.1651611328125,
          -25.119175697367957
        ]
      }
    },
    {
      "type": "Feature",
      "properties": {
        "name": "Payogasta",
        "type": "City",
        "description": "Spent the night sleeping in a cemetery",
        "country": "argentina",
        "visited": true
      },
      "geometry": {
        "type": "Point",
        "coordinates": [
          -66.10130310058592,
          -25.053256973596103
        ]
      }
    },
    {
      "type": "Feature",
      "properties": {
        "name": "Tilcara",
        "type": "City",
        "description": "Celebrated Carnival",
        "country": "argentina",
        "visited": true
      },
      "geometry": {
        "type": "Point",
        "coordinates": [
          -65.3961181640625,
          -23.579091596182867
        ]
      }
    },
    {
      "type": "Feature",
      "properties": {
        "name": "Purmamarca",
        "type": "City",
        "description": "Woke up early to hitchhike onward to Chile",
        "country": "argentina",
        "visited": true
      },
      "geometry": {
        "type": "Point",
        "coordinates": [
          -65.489501953125,
          -23.748896919398167
        ]
      }
    }
  ]
}