{
  "type": "FeatureCollection",
  "properties": {
    "name": "Chile"
  },
  "features": [
    {
      "type": "Feature",
      "properties": {
        "name": "Punta Arenas",
        "type": "City",
        "country": "chile",
        "visited": true
      },
      "geometry": {
        "type": "Point",
        "coordinates": [
          -70.9222412109375,
          -53.15994678846807
        ]
      }
    },
    {
      "type": "Feature",
      "properties": {
        "name": "Puerto Natales",
        "type": "City",
        "country": "chile",
        "visited": true
      },
      "geometry": {
        "type": "Point",
        "coordinates": [
          -72.498779296875,
          -51.71001238595861
        ]
      }
    },
    {
      "type": "Feature",
      "properties": {
        "name": "Parque Nacional Torres del Paine",
        "type": "National Park",
        "country": "chile",
        "visited": true
      },
      "geometry": {
        "type": "Point",
        "coordinates": [
          -72.960205078125,
          -51.0206660125581
        ]
      }
    },
    {
      "type": "Feature",
      "properties": {
        "name": "Puerto Rio Tranquilo",
        "description": "Camped at a popular camping area",
        "type": "City",
        "country": "chile",
        "visited": true
      },
      "geometry": {
        "type": "Point",
        "coordinates": [
          -72.67593383789062,
          -46.626806395355175
        ]
      }
    },
    {
      "type": "Feature",
      "properties": {
        "name": "Coyhaqiue",
        "description": "Camped outside of town",
        "type": "City",
        "country": "chile",
        "visited": true
      },
      "geometry": {
        "type": "Point",
        "coordinates": [
          -72.06893920898438,
          -45.56790960986128
        ]
      }
    },
    {
      "type": "Feature",
      "properties": {
        "name": "Puno",
        "type": "City",
        "description": "Camped in an abandoned house",
        "country": "chile",
        "visited": true
      },
      "geometry": {
        "type": "Point",
        "coordinates": [
          -72.56332397460938,
          -44.31205742666618
        ]
      }
    },
    {
      "type": "Feature",
      "properties": {
        "name": "Puno",
        "type": "City",
        "description": "Stayed with my drivers family who lives here",
        "country": "chile",
        "visited": true
      },
      "geometry": {
        "type": "Point",
        "coordinates": [
          -72.43011474609375,
          -43.967121395851485
        ]
      }
    },
    {
      "type": "Feature",
      "properties": {
        "name": "Parque Nacional Queulat",
        "type": "National Park",
        "country": "chile",
        "visited": true
      },
      "geometry": {
        "type": "Point",
        "coordinates": [
          -72.35870361328125,
          -44.39846714225849
        ]
      }
    },
    {
      "type": "Feature",
      "properties": {
        "name": "Puerto Montt",
        "type": "City",
        "country": "chile",
        "visited": true
      },
      "geometry": {
        "type": "Point",
        "coordinates": [
          -72.9766845703125,
          -41.48389104267176
        ]
      }
    },
    {
      "type": "Feature",
      "properties": {
        "name": "Puerto Varas",
        "description": "Got a ride from Chiloe with some European girls heading this way",
        "type": "City",
        "country": "chile",
        "visited": true
      },
      "geometry": {
        "type": "Point",
        "coordinates": [
          -72.99316406249999,
          -41.31494988250964
        ]
      }
    },
    {
      "type": "Feature",
      "properties": {
        "name": "Castro",
        "type": "City",
        "country": "chile",
        "visited": true
      },
      "geometry": {
        "type": "Point",
        "coordinates": [
          -73.77044677734375,
          -42.48425110546248
        ]
      }
    },
    {
      "type": "Feature",
      "properties": {
        "name": "Quinchao",
        "type": "City",
        "country": "chile",
        "visited": true
      },
      "geometry": {
        "type": "Point",
        "coordinates": [
          -73.42231750488281,
          -42.537903898420694
        ]
      }
    },
    {
      "type": "Feature",
      "properties": {
        "name": "Achao",
        "type": "City",
        "country": "chile",
        "visited": true
      },
      "geometry": {
        "type": "Point",
        "coordinates": [
          -73.487548828125,
          -42.47057746867013
        ]
      }
    },
    {
      "type": "Feature",
      "properties": {
        "name": "Dalcahue",
        "type": "City",
        "country": "chile",
        "visited": true
      },
      "geometry": {
        "type": "Point",
        "coordinates": [
          -73.65337371826172,
          -42.37934354245871
        ]
      }
    },
    {
      "type": "Feature",
      "properties": {
        "name": "Curaro de Velez",
        "type": "City",
        "country": "chile",
        "visited": true
      },
      "geometry": {
        "type": "Point",
        "coordinates": [
          -73.60221862792969,
          -42.43790057594955
        ]
      }
    },
    {
      "type": "Feature",
      "properties": {
        "name": "Valdivia",
        "description": "Got a ride all the way to Santiago",
        "type": "City",
        "country": "chile",
        "visited": true
      },
      "geometry": {
        "type": "Point",
        "coordinates": [
          -73.23486328124999,
          -39.82541310342477
        ]
      }
    },
    {
      "type": "Feature",
      "properties": {
        "name": "Santiago",
        "type": "City",
        "country": "chile",
        "visited": true
      },
      "geometry": {
        "type": "Point",
        "coordinates": [
          -70.653076171875,
          -33.43144133557529
        ]
      }
    },
    {
      "type": "Feature",
      "properties": {
        "name": "Valparaiso",
        "type": "City",
        "country": "chile",
        "visited": true
      },
      "geometry": {
        "type": "Point",
        "coordinates": [
          -71.63635253906249,
          -33.073130945006625
        ]
      }
    },
    {
      "type": "Feature",
      "properties": {
        "name": "San Pedro de Atacama",
        "type": "City",
        "country": "chile",
        "visited": true
      },
      "geometry": {
        "type": "Point",
        "coordinates": [
          -68.2305908203125,
          -22.91792293614603
        ]
      }
    },
    {
      "type": "Feature",
      "properties": {
        "name": "Calama",
        "type": "City",
        "country": "chile",
        "visited": true
      },
      "geometry": {
        "type": "Point",
        "coordinates": [
          -68.90625,
          -22.464340223177093
        ]
      }
    },
    {
      "type": "Feature",
      "properties": {
        "name": "Chuquicamata",
        "type": "City",
        "country": "chile",
        "visited": true
      },
      "geometry": {
        "type": "Point",
        "coordinates": [
          -68.92547607421875,
          -22.31704861179864
        ]
      }
    },
    {
      "type": "Feature",
      "properties": {
        "name": "Iquique",
        "type": "City",
        "country": "chile",
        "visited": true
      },
      "geometry": {
        "type": "Point",
        "coordinates": [
          -70.14770507812499,
          -20.215811092394556
        ]
      }
    },
    {
      "type": "Feature",
      "properties": {
        "name": "Humberstone",
        "type": "City",
        "country": "chile",
        "visited": true
      },
      "geometry": {
        "type": "Point",
        "coordinates": [
          -69.79408264160156,
          -20.211944964974403
        ]
      }
    }
  ]
}
