{
  "type": "FeatureCollection",
  "properties": {
    "name": "South Korea"
  },
  "features": [
    {
      "type": "Feature",
      "properties": {
        "name": "Busan",
        "country": "south-korea",
        "type": "City",
        "visited": true
      },
      "geometry": {
        "type": "Point",
        "coordinates": [
          129.07012939453125,
          35.149108698601644
        ]
      }
    },
    {
      "type": "Feature",
      "properties": {
        "name": "Seoul",
        "country": "south-korea",
        "type": "City",
        "visited": true
      },
      "geometry": {
        "type": "Point",
        "coordinates": [
          126.97998046875001,
          37.54784381205082
        ]
      }
    },
    {
      "type": "Feature",
      "properties": {
        "name": "Gyenongju",
        "country": "south-korea",
        "type": "City",
        "visited": true
      },
      "geometry": {
        "type": "Point",
        "coordinates": [
          129.232177734375,
          35.833401703805094
        ]
      }
    },
    {
      "type": "Feature",
      "properties": {
        "name": "Sokcho",
        "country": "south-korea",
        "type": "City",
        "visited": true
      },
      "geometry": {
        "type": "Point",
        "coordinates": [
          128.58810424804688,
          38.20203656603225
        ]
      }
    },
    {
      "type": "Feature",
      "properties": {
        "name": "Seoraksan",
        "country": "south-korea",
        "type": "National Park",
        "visited": true
      },
      "geometry": {
        "type": "Point",
        "coordinates": [
          128.48888397216797,
          38.170058838810554
        ]
      }
    }
  ]
}
